,City,Cloudiness,Country,Date,Humidity,Lat,Lon,Max Temp,Wind Speed
0,Bismarck,1,US,1585387328,86,46.81,-100.78,39.0,5.82
1,Jamestown,90,US,1585387328,65,42.1,-79.24,48.0,5.82
2,Padang,99,ID,1585387328,73,-0.95,100.35,83.91,3.94
3,Pecos,1,US,1585387329,22,31.42,-103.49,57.2,18.34
4,Rikitea,89,PF,1585387329,79,-23.12,-134.97,78.21,8.19
5,Kloulklubed,90,PW,1585387329,78,7.04,134.26,82.4,9.17
6,Union,1,US,1585387234,34,40.63,-74.27,52.0,8.7
7,Cervo,0,ES,1585387330,1,43.67,-7.41,59.0,7.63
8,Shingū,75,JP,1585387330,82,33.73,135.98,59.0,12.75
9,Lompoc,1,US,1585387330,86,34.64,-120.46,48.0,9.17
10,Mataura,2,NZ,1585387330,88,-46.19,168.86,48.99,3.0
11,Bengkulu,99,ID,1585387330,70,-3.8,102.27,84.4,5.41
12,Hithadhoo,1,MV,1585387265,67,-0.6,73.08,84.43,8.81
13,Saldanha,0,ZA,1585387331,56,-33.01,17.94,71.6,13.87
14,Pochutla,0,MX,1585387331,61,15.74,-96.47,78.69,10.33
15,Same,98,TZ,1585387332,47,-4.07,37.73,81.99,0.76
16,Hong Kong,40,HK,1585387056,83,22.29,114.16,75.2,6.93
17,Nishihara,90,JP,1585387332,94,26.18,127.76,75.2,20.8
18,Bendigo,69,AU,1585387332,36,-36.77,144.28,73.99,8.01
19,Baruun-Urt,0,MN,1585387332,28,46.68,113.28,43.99,20.15
20,Wuda,0,CN,1585387333,23,39.5,106.71,53.92,6.82
21,Lorengau,45,PG,1585387333,77,-2.02,147.27,83.23,5.41
22,Uşak Province,100,TR,1585387333,52,38.5,29.42,52.21,10.18
23,Cidreira,100,BR,1585387333,81,-30.18,-50.21,71.65,17.29
24,Autazes,98,BR,1585387333,97,-3.58,-59.13,74.08,2.48
25,Katsuura,75,JP,1585387334,87,35.13,140.3,60.8,13.87
26,Hilo,90,US,1585387279,77,19.73,-155.09,69.8,8.05
27,Erdenet,0,MN,1585387334,31,49.03,104.08,39.42,13.2
28,Ancud,100,CL,1585387334,100,-41.87,-73.82,50.0,4.7
29,Nizwá,0,OM,1585387282,25,22.93,57.53,82.38,7.58
30,Finschhafen,88,PG,1585387335,78,-6.6,147.87,82.13,12.08
31,Gannan,72,CN,1585387335,55,47.91,123.5,40.84,10.16
32,Codrington,99,AU,1585387335,52,-38.27,141.97,71.02,4.52
33,Erzin,75,TR,1585387335,82,36.96,36.2,62.6,4.7
34,Tayoltita,100,MX,1585387335,41,24.08,-105.93,62.73,3.91
35,Düzce,100,TR,1585387336,74,40.84,31.16,49.64,3.53
36,Arrondissement de Saint-Denis,7,FR,1585387336,70,48.92,2.33,51.01,8.05
37,St. George's,20,GD,1585387336,78,12.06,-61.75,77.0,4.7
38,Tyup,100,KG,1585387336,39,42.73,78.36,42.78,3.06
39,Natal,75,BR,1585387337,100,-5.79,-35.21,75.2,4.7
40,Hondomachi-hondo,75,JP,1585387337,93,32.45,130.2,51.8,16.11
41,Kiryat Gat,40,IL,1585387337,60,31.61,34.76,68.0,12.75
42,Dubbo,50,AU,1585387338,64,-32.25,148.62,69.8,10.29
43,Flers,90,FR,1585387338,81,48.74,-0.57,48.2,11.41
44,Flinders,90,AU,1585387338,64,-34.58,150.86,68.0,6.93
45,Itaperuna,11,BR,1585387338,86,-21.2,-41.89,64.83,1.32
46,Yangambi,89,CD,1585387339,55,0.81,24.43,83.97,5.19
47,Emba,1,KZ,1585387339,51,48.83,58.14,47.37,12.24
48,Atuona,38,PF,1585387339,75,-9.8,-139.03,81.54,17.6
49,San Fernando del Valle de Catamarca,4,AR,1585387339,87,-28.47,-65.79,66.99,1.01
50,Buckeye,1,US,1585387340,70,33.37,-112.58,50.0,3.98
51,Galle,14,LK,1585387340,64,6.04,80.22,85.05,4.63
52,Hambantota,40,LK,1585387340,66,6.12,81.12,89.6,8.05
53,Zhangye,100,CN,1585387060,21,38.93,100.45,52.59,9.46
54,Hermanus,9,ZA,1585387232,78,-34.42,19.23,71.01,4.0
55,Tual,100,ID,1585387341,75,-5.67,132.75,83.7,8.21
56,George Town,40,MY,1585387341,66,5.41,100.34,91.4,12.75
57,Carnarvon,3,AU,1585387341,65,-24.87,113.63,82.4,18.34
58,Antofagasta,20,CL,1585387342,87,-23.65,-70.4,59.0,2.24
59,Bedelē,58,ET,1585387342,12,8.46,36.35,85.71,5.03
60,Erenhot,0,CN,1585387342,27,43.65,111.98,44.29,9.86
61,Copalillo,0,MX,1585387342,58,18.03,-99.12,69.01,2.26
62,Hamilton,1,US,1585387343,100,39.18,-84.53,63.0,4.68
63,Robertson,1,US,1585387343,83,36.52,-86.87,73.4,9.17
64,Camacha,20,PT,1585387343,82,33.08,-16.33,59.0,13.87
65,Abhā,99,SA,1585387343,40,18.22,42.51,75.2,19.46
66,Pandamatenga,40,BW,1585387344,53,-18.53,25.63,74.5,8.37
67,Albany,1,US,1585387344,84,42.6,-73.97,33.01,3.36
68,Soyo,20,AO,1585387344,83,-6.13,12.37,84.2,6.93
69,Arlit,45,NE,1585387344,8,18.74,7.39,92.1,8.88
70,Amapá,100,BR,1585387345,94,1.0,-52.0,71.94,1.1
71,Concordia,85,AR,1585387345,94,-31.39,-58.02,68.0,6.93
72,Sesheke,20,ZM,1585387345,61,-17.48,24.3,78.8,5.82
73,Jambi City,88,ID,1585387270,77,-1.6,103.62,86.05,1.36
74,Kalānaur,0,IN,1585387345,25,28.83,76.4,85.95,10.92
75,Acapulco de Juárez,5,MX,1585387333,88,16.86,-99.89,75.2,2.24
76,Bandarbeyla,60,SO,1585387345,63,9.49,50.81,83.16,12.33
77,Vangaindrano,34,MG,1585387346,69,-23.35,47.6,84.34,4.18
78,Bambanglipuro,100,ID,1585387346,74,-7.95,110.28,84.49,5.99
79,Suleja,67,NG,1585387346,58,9.18,7.18,86.0,2.24
80,Muros,58,ES,1585387347,57,42.78,-9.06,55.99,5.82
81,Batočina,2,RS,1585387140,71,44.15,21.08,50.0,2.24
82,Kovūr,52,IN,1585387347,24,14.48,79.98,96.13,12.26
83,Province of Groningen,20,NL,1585387347,70,53.25,6.75,51.01,11.41
84,Caluquembe,94,AO,1585387348,55,-13.78,14.68,68.11,2.73
85,Laguna,1,US,1585387348,87,38.42,-121.42,50.0,4.7
86,Poções,65,BR,1585387348,78,-14.53,-40.37,63.7,4.36
87,Sur,0,OM,1585387349,37,22.57,59.53,85.06,4.47
88,Pallasovka,100,RU,1585387349,73,50.05,46.88,47.93,11.86
89,Broome,1,US,1585387349,69,42.25,-75.83,37.99,4.7
90,Buraidah,75,SA,1585387350,35,26.33,43.98,87.8,18.34
91,Gurupá,100,BR,1585387350,97,-1.41,-51.64,73.54,2.28
92,Xining,100,CN,1585387350,20,36.62,101.77,48.09,12.3
93,Somoto,2,NI,1585387350,76,13.48,-86.58,64.78,2.3
94,Sabang,26,ID,1585387350,68,5.89,95.32,84.96,8.01
95,Mossamedes,40,AO,1585387351,88,-15.2,12.15,75.2,5.82
96,Labuhan,96,ID,1585387351,70,-6.88,112.21,85.48,6.87
97,Kavaratti,20,IN,1585387351,66,10.57,72.64,91.4,4.7
98,Kanganpur,0,PK,1585387352,29,30.77,74.12,83.21,5.06
99,Nouadhibou,20,MR,1585387352,82,20.93,-17.03,66.2,16.11
100,Tūkrah,7,LY,1585387352,35,32.53,20.58,67.62,20.76
101,Mindelo,75,CV,1585387352,56,16.89,-24.98,71.6,20.8
102,Matara,29,LK,1585387352,61,5.95,80.54,86.79,9.26
103,Oswego,1,US,1585387353,78,43.45,-76.15,37.0,6.4
104,Cocorit,0,MX,1585387353,38,27.58,-109.97,56.88,7.14
105,Albania,20,AL,1585387353,48,41.0,20.0,60.8,3.36
106,Ternate,82,ID,1585387353,76,0.8,127.4,83.07,5.12
107,Lethem,91,GY,1585387353,73,3.38,-59.8,77.38,11.9
108,Bangui,20,CF,1585387354,70,4.36,18.55,84.2,9.17
109,Soe,58,ID,1585387354,77,-9.86,124.28,73.08,4.43
110,Martapura,20,ID,1585387354,79,-3.42,114.85,84.2,5.82
111,Trincomalee,87,LK,1585387354,55,8.57,81.23,86.76,9.19
112,Fukuechō,75,JP,1585387354,87,32.69,128.84,51.8,16.11
113,Burē,92,ET,1585387355,6,10.7,37.07,86.04,4.94
114,Ilo,93,PE,1585387355,77,-17.64,-71.34,71.78,7.56
115,Wawa,4,NG,1585387323,42,9.9,4.42,90.82,4.29
116,Konice,0,CZ,1585387355,53,49.59,16.89,59.0,1.12
117,Esperance,40,AU,1585387356,68,-33.87,121.9,66.2,20.8
118,Bāfq,89,IR,1585387356,23,31.61,55.41,71.06,13.11
119,Marystown,73,CA,1585387356,96,47.17,-55.15,30.67,14.52
120,Standish,90,US,1585387356,82,43.98,-83.96,41.0,3.36
121,Itatinga,39,BR,1585387307,77,-23.1,-48.62,59.2,6.17
122,Pisco,90,PE,1585387357,88,-13.7,-76.22,69.8,4.7
123,Coyhaique,90,CL,1585387357,87,-45.58,-72.07,46.4,9.17
124,Popondetta,91,PG,1585387357,80,-8.75,148.25,79.3,2.42
125,Kapoeta,97,SS,1585387357,30,4.77,33.59,93.47,9.51
126,Panjāb,1,AF,1585387358,29,34.39,67.02,34.9,2.15
127,Saint-Philippe,33,RE,1585387358,70,-21.36,55.77,87.8,8.05
128,Trabzon Province,75,TR,1585387358,87,40.92,39.83,51.8,4.7
129,Airai,83,TL,1585387358,73,-8.93,125.41,66.11,1.34
130,Poltava,72,UA,1585387359,38,49.59,34.54,55.36,15.66
131,Ondjiva,90,AO,1585387359,93,-17.07,15.73,66.2,2.24
132,Beyneu,0,KZ,1585387359,33,45.32,55.2,58.91,11.1
133,Tiznit Province,92,MA,1585387359,67,29.58,-9.5,53.73,7.09
134,Yoichi,75,JP,1585387360,40,43.2,140.77,37.99,13.87
135,Ladário,50,BR,1585387360,90,-19.0,-57.6,73.81,1.72
136,Agüimes,20,ES,1585387360,63,27.91,-15.45,64.4,12.75
137,Mahébourg,40,MU,1585387360,70,-20.41,57.7,86.0,3.36
138,Dilla,22,ET,1585387361,31,6.41,38.31,78.1,4.14
139,Peterongan,100,ID,1585387361,78,-7.54,112.28,85.23,2.15
140,Springfield,1,US,1585387205,88,37.22,-93.3,70.0,9.17
141,Esmeralda,12,CU,1585387362,84,21.85,-78.12,68.85,7.34
142,Mildura,97,AU,1585387362,41,-34.2,142.15,81.0,1.01
143,Kilindoni,90,TZ,1585387246,74,-7.91,39.67,82.81,3.83
144,Farafangana,5,MG,1585387362,71,-22.82,47.83,82.36,6.51
145,Prestea,24,GH,1585387363,71,5.43,-2.14,84.88,4.16
146,Loreto,29,MX,1585387363,15,22.27,-101.97,62.4,3.58
147,Mazatlán,75,MX,1585387321,100,23.22,-106.42,70.0,5.75
148,Departamento de Maldonado,99,UY,1585387166,88,-34.67,-54.92,69.8,9.17
149,Mangai,100,CD,1585387363,46,-4.05,19.53,87.64,2.89
150,Saint-Pierre,41,RE,1585387302,70,-21.34,55.48,87.8,8.05
151,Urucará,100,BR,1585387364,97,-2.54,-57.76,73.81,1.43
152,Koutsouras,0,GR,1585387364,57,35.03,25.95,59.0,8.66
153,Oranjemund,0,NA,1585387364,58,-28.55,16.43,66.78,10.56
154,Ndélé,34,CF,1585387365,33,8.41,20.65,94.1,8.75
155,Tutóia,55,BR,1585387365,88,-2.76,-42.27,77.79,9.37
156,Lewistown,90,US,1585387366,93,40.6,-77.57,50.0,4.56
157,Zihuatanejo,0,MX,1585387366,50,17.63,-101.55,77.94,4.25
158,Vostok,100,RU,1585387366,87,46.49,135.88,19.51,10.11
159,Karratha,63,AU,1585387366,43,-20.74,116.85,93.69,13.33
160,Tiarei,97,PF,1585387367,74,-17.53,-149.33,80.6,3.36
161,Nanyamba,75,TZ,1585387367,70,-10.68,39.83,86.0,5.82
162,Cayenne,77,GF,1585387082,100,4.93,-52.33,75.2,2.24
163,Fortuna,90,US,1585387368,100,40.6,-124.16,48.2,7.07
164,Castro,74,BR,1585387262,70,-24.79,-50.01,58.39,5.84
165,Thinadhoo,98,MV,1585387368,63,0.53,72.93,84.43,9.01
166,Torbay,90,CA,1585387368,96,47.67,-52.73,33.01,13.87
167,Doha,75,QA,1585387368,45,25.29,51.53,91.4,14.99
168,Katherine,75,AU,1585387368,30,-14.47,132.27,95.0,9.17
169,Nyimba,15,ZM,1585387369,44,-14.56,30.81,81.95,6.89
170,Lüderitz,0,NA,1585387369,49,-26.65,15.16,71.6,8.05
171,Tonj,65,SS,1585387369,30,7.27,28.68,98.13,7.81
172,Karasburg,0,NA,1585387369,12,-28.02,18.75,83.79,7.47
173,Kuytun,100,RU,1585387369,78,54.34,101.5,35.46,0.72
174,Altus,1,US,1585387283,31,34.64,-99.33,68.0,14.99
175,Lagoa,83,PT,1585387370,73,39.05,-27.98,58.33,21.88
176,Nagato,75,JP,1585387370,87,34.38,131.2,53.01,4.7
177,Japura,98,ID,1585387370,62,-0.32,102.35,89.4,4.27
178,Palu,100,ID,1585387216,80,-0.89,119.87,82.06,3.0
179,Bubaque,35,GW,1585387084,54,11.28,-15.83,76.8,13.69
180,Busselton,29,AU,1585387371,33,-33.65,115.33,68.0,14.79
181,Gorontalo,82,ID,1585387371,72,0.54,123.06,84.04,0.67
182,Souillac,40,MU,1585387372,70,-20.52,57.52,86.0,3.36
183,Esna,0,EG,1585387372,34,25.29,32.55,78.8,9.17
184,Yenagoa,99,NG,1585387372,72,4.92,6.26,86.23,4.56
185,Waddān,9,LY,1585387372,18,29.16,16.14,75.33,13.04
186,Yaan,96,NG,1585387373,63,7.38,8.57,85.68,8.1
187,Biak,100,ID,1585387373,73,-0.91,122.88,83.03,4.65
188,Osmeña,8,PH,1585387373,76,10.52,119.93,82.8,8.68
189,Ibrā’,0,OM,1585387373,25,22.69,58.53,83.98,6.11
190,Mareeba,75,AU,1585387373,78,-17.0,145.43,78.8,14.99
191,Lebu,1,CL,1585387373,89,-37.62,-73.65,54.61,3.98
192,Lixouri,75,GR,1585387374,87,38.2,20.43,55.4,6.93
193,Muroto-misakicho,75,JP,1585387374,82,33.28,134.15,57.2,11.41
194,Saint Paul Harbor,1,US,1585387374,55,57.79,-152.41,39.2,9.17
195,Itarema,47,BR,1585387374,91,-2.92,-39.92,76.32,6.64
196,Maputo,75,MZ,1585387375,61,-25.97,32.59,78.8,5.82
197,Yashan,78,CN,1585387375,62,22.2,109.94,78.87,6.24
198,Itaituba,100,BR,1585387362,90,-4.28,-55.98,73.58,1.59
199,Tataouine,20,TN,1585387375,51,32.93,10.45,62.6,3.36
200,Alenquer,40,BR,1585387375,100,-1.94,-54.74,77.0,4.7
201,Margate,21,GB,1585387376,70,51.38,1.39,50.0,16.11
202,Valinhos,3,BR,1585387376,88,-22.97,-47.0,64.99,9.17
203,Valparaíso,90,CL,1585387376,93,-33.04,-71.63,59.0,3.36
204,Khovd,0,MN,1585387376,26,48.01,91.64,42.39,4.85
205,Arrondissement de Blois,87,FR,1585387377,66,47.58,1.33,48.2,3.36
206,Manzanillo,10,CU,1585387173,90,20.34,-77.12,68.85,7.92
207,Meulaboh,79,ID,1585387377,75,4.14,96.13,85.19,7.0
208,Hurricane,1,US,1585387359,64,37.18,-113.29,41.0,3.4
209,Paracuru,75,BR,1585387277,94,-3.41,-39.03,77.0,6.93
210,Golden,1,US,1585387209,46,39.76,-105.22,35.6,11.41
211,Chifeng,0,CN,1585387378,32,42.27,118.96,47.73,13.0
212,Buenaventura,62,CO,1585387378,92,3.88,-77.03,74.19,2.73
213,Tezu,96,IN,1585387378,49,27.92,96.17,78.78,0.11
214,Yulara,0,AU,1585387378,13,-25.24,130.99,98.6,5.82
215,Port-Gentil,75,GA,1585387378,84,-0.72,8.78,86.0,9.17
216,Saint-Leu,43,RE,1585387378,70,-21.15,55.28,87.8,8.05
217,Vincennes,14,FR,1585387379,70,48.85,2.43,51.01,8.05
218,Chimoio,75,MZ,1585387379,83,-19.12,33.48,73.4,9.73
219,Pilar,75,BR,1585387379,100,-9.6,-35.96,75.2,3.36
220,Shar,100,KZ,1585387379,88,49.59,81.05,31.05,4.9
221,Djibouti,75,DJ,1585387379,70,11.5,42.5,86.0,11.41
222,Ucluelet,100,CA,1585387380,94,48.93,-125.55,48.0,5.17
223,Sarangani,100,PH,1585387380,79,5.4,125.46,82.51,21.79
224,Morehead,1,US,1585387380,82,37.27,-87.18,72.0,6.93
225,Taoudenni,34,ML,1585387380,23,22.68,-3.98,81.86,3.65
226,Dhārchula,23,IN,1585387380,20,29.85,80.53,68.14,7.2
227,Esplanada,48,BR,1585387381,92,-11.8,-37.95,73.44,3.13
228,Namikupa,59,TZ,1585387269,70,-10.83,39.6,85.33,1.68
229,Atasū,89,KZ,1585387381,82,48.68,71.64,30.42,10.22
230,Kanata,20,CA,1585387381,68,45.32,-75.9,28.99,3.36
231,Burnie,9,AU,1585387381,90,-41.07,145.92,64.0,5.01
232,Woodward,1,US,1585387382,33,36.43,-99.39,62.01,16.11
233,Bathsheba,20,BB,1585387382,78,13.22,-59.52,77.0,14.99
234,Wana,35,PK,1585387382,22,32.3,69.57,61.29,4.88
235,Danville,90,US,1585387303,88,36.59,-79.39,64.0,8.05
236,Balabac,2,PH,1585387383,73,7.99,117.06,84.85,11.32
237,Tefé,99,BR,1585387383,96,-3.35,-64.71,74.43,2.06
238,Piaçabuçu,87,BR,1585387383,84,-10.41,-36.43,78.62,5.46
239,Altay,0,CN,1585387383,46,47.87,88.12,37.76,3.49
240,Altamira,100,BR,1585387383,96,-3.2,-52.21,72.64,1.25
241,Oakton,90,US,1585387384,93,38.88,-77.3,55.0,5.91
242,Solenzo,70,BF,1585387384,20,12.18,-4.08,92.82,1.88
243,Atar,92,MR,1585387384,36,20.52,-13.05,66.65,12.97
244,Talas,75,TR,1585387384,54,38.69,35.55,57.2,3.36
245,Tirumullaivāsal,62,IN,1585387384,49,11.23,79.83,87.26,10.29
246,Harper,65,LR,1585387384,74,4.38,-7.72,83.82,5.14
247,Manokwari,93,ID,1585387248,81,-0.87,134.08,81.25,8.19
248,Danshui,20,CN,1585387385,78,22.8,114.47,75.0,11.18
249,Rāzole,0,IN,1585387385,43,16.48,81.83,92.17,11.05
250,Jalu,0,LY,1585387206,22,29.03,21.55,69.42,6.15
251,Ati,49,TD,1585387385,9,13.22,18.34,101.88,14.36
252,Villaviciosa,14,ES,1585387385,76,43.48,-5.44,54.0,3.36
253,Trairi,60,BR,1585387386,87,-3.28,-39.27,77.65,8.5
254,Arrondissement de Gap,0,FR,1585387386,71,44.67,6.0,46.0,1.01
255,Jieshi,60,CN,1585387386,65,22.81,115.83,73.0,3.0
256,Duku,0,NG,1585387386,13,11.24,4.91,96.58,2.75
257,Teocelo,0,MX,1585387387,32,19.38,-96.97,68.7,4.45
258,Banepā,20,NP,1585387387,26,27.63,85.52,78.8,14.99
259,Progreso,5,MX,1585387387,78,21.28,-89.67,73.99,11.41
260,Guararapes,9,BR,1585387387,68,-21.26,-50.64,69.8,11.41
261,Naze,75,JP,1585387387,94,28.37,129.48,71.6,14.99
262,Cuiluan,3,CN,1585387387,65,47.72,128.65,32.74,10.83
263,Amahai,100,ID,1585387388,73,-3.33,128.92,84.11,7.09
264,Inhambane,40,MZ,1585387388,88,-23.86,35.38,77.0,4.7
265,Andilamena,85,MG,1585387388,53,-17.02,48.58,78.71,6.87
266,Pemba,75,MZ,1585387388,83,-12.97,40.52,84.2,4.7
267,Sabha,58,LY,1585387389,22,27.04,14.43,74.16,11.43
268,Shelburne,1,CA,1585387389,86,44.08,-80.2,39.99,6.98
269,Khorixas,69,NA,1585387389,19,-20.37,14.97,83.3,0.38
270,Constitución,0,CL,1585387389,80,-35.33,-72.42,55.62,3.2
271,Altamont,90,US,1585387390,74,42.21,-121.74,37.4,1.1
272,Caravelas,46,BR,1585387390,84,-17.71,-39.25,75.7,10.47
273,Matanzas,5,CU,1585387165,93,23.04,-81.58,66.2,4.7
274,Kalabo,71,ZM,1585387390,51,-14.97,22.68,76.87,7.47
275,Bonga,80,ET,1585387390,20,7.28,36.23,87.46,0.69
276,Diamantino,94,BR,1585387391,88,-14.41,-56.45,70.83,4.34
277,Chui,100,UY,1585387391,81,-33.7,-53.46,70.59,12.19
278,Korla,97,CN,1585387391,21,41.76,86.15,58.14,6.6
279,Birin,30,NP,1585387391,22,26.89,88.07,76.6,10.47
280,Mamburao,9,PH,1585387392,65,13.25,120.67,82.58,1.39
281,Dunhua,0,CN,1585387392,61,43.37,128.24,32.45,7.92
282,Laas,20,IT,1585387392,80,46.62,10.7,53.01,3.36
283,Angoche,81,MZ,1585387392,66,-16.23,39.91,84.78,10.13
284,Omboué,69,GA,1585387392,75,-1.57,9.26,84.74,7.78
285,Teguise,20,ES,1585387393,68,29.06,-13.56,66.2,5.82
286,Padrauna,41,IN,1585387105,17,26.9,83.98,95.74,17.76
287,Sayyan,51,YE,1585387393,13,15.17,44.32,72.68,4.21
288,Bloomfield,1,US,1585387166,49,40.81,-74.19,52.0,6.73
289,Jiuquan,91,CN,1585387393,21,39.74,98.52,52.57,8.03
290,Dingle,85,PH,1585387394,63,11.0,122.67,85.1,12.66
291,Kinkala,20,CG,1585387394,78,-4.36,14.76,82.4,4.7
292,Adrar,2,MR,1585387394,24,20.5,-10.07,68.88,17.67
293,Sambava,99,MG,1585387394,72,-14.27,50.17,83.21,9.57
294,Ampanihy,18,MG,1585387395,50,-24.7,44.75,86.56,8.23
295,Vondrozo,37,MG,1585387395,63,-22.82,47.28,77.79,4.29
296,Olinda,40,BR,1585387395,88,-8.01,-34.86,78.8,2.24
297,Pueblo,90,US,1585387395,86,38.25,-104.61,37.99,14.99
298,Maumere,77,ID,1585387395,78,-8.62,122.21,83.44,4.94
299,Swakopmund,0,NA,1585387395,82,-22.68,14.53,64.99,3.0
300,Mogadishu,20,SO,1585387396,59,2.04,45.34,89.6,12.75
301,Kendari,96,ID,1585387396,85,-3.94,122.5,82.2,2.42
302,Yunyang,100,CN,1585387397,69,33.45,112.71,44.01,9.42
303,Lander,1,US,1585387397,42,42.83,-108.73,28.99,6.96
304,Mahon,20,ES,1585387397,76,39.89,4.27,57.2,10.29
305,Sterling,90,US,1585387209,93,39.01,-77.43,55.0,8.05
306,Yakeshi,22,CN,1585387397,76,49.28,120.73,28.54,11.03
307,Saint-Raphaël,3,HT,1585387397,83,19.43,-72.2,65.05,2.66
308,Kudahuvadhoo,9,MV,1585387398,63,2.67,72.89,84.04,8.03
309,Mandalgovi,0,MN,1585387398,24,45.76,106.27,42.12,18.07
310,Uvinza,100,TZ,1585387398,63,-5.1,30.39,75.06,5.26
311,Palora,100,EC,1585387399,66,-1.7,-77.93,66.25,3.15
312,Saint-François,90,FR,1585387399,70,46.42,3.91,51.01,2.24
313,Maraã,100,BR,1585387399,91,-1.83,-65.37,74.39,1.61
314,Dinguiraye,51,GN,1585387399,38,11.3,-10.72,87.39,2.98
315,Atambua,81,ID,1585387399,78,-9.11,124.89,79.5,2.48
316,Olhão,37,PT,1585387400,71,37.03,-7.84,59.0,4.7
317,Coquimbo,7,CL,1585387400,77,-29.95,-71.34,62.6,2.24
318,Boende,99,CD,1585387400,51,-0.22,20.87,87.12,4.29
319,Dakar,90,SN,1585387400,83,14.69,-17.44,69.8,13.87
320,Mumford,35,GH,1585387400,74,5.26,-0.76,83.93,6.55
321,Hailar,4,CN,1585387401,64,49.2,119.7,32.38,9.55
322,Wattegama,40,LK,1585387401,66,6.8,81.48,89.6,8.05
323,Biloxi,75,US,1585387242,88,30.4,-88.89,75.2,14.99
324,Beïnamar,2,TD,1585387178,11,8.67,15.38,102.06,3.13
325,Calahorra,24,ES,1585387401,75,42.31,-1.97,51.01,8.05
326,Shangrao,92,CN,1585387401,78,28.45,117.97,47.01,9.28
327,Borba,98,BR,1585387402,96,-4.39,-59.59,73.4,2.1
328,Mawlaik,1,MM,1585387402,12,23.63,94.42,107.33,4.76
329,Mayumba,95,GA,1585387402,75,-3.43,10.66,84.83,4.23
330,Ambilobe,89,MG,1585387402,76,-13.2,49.05,84.81,4.05
331,Nuquí,77,CO,1585387402,86,5.71,-77.27,76.8,1.9
332,Shimoda,75,JP,1585387403,82,34.67,138.95,64.99,11.41
333,Esim,5,GH,1585387403,74,4.87,-2.24,84.22,5.23
334,Beasain,58,ES,1585387403,80,43.05,-2.2,55.99,1.12
335,Manacapuru,75,BR,1585387403,100,-3.3,-60.62,75.2,1.12
336,Bulungu,98,CD,1585387403,53,-4.55,18.6,85.84,2.84
337,Lianzhou,29,CN,1585387404,64,24.78,112.38,61.63,6.91
338,Najrān,40,SA,1585387404,24,17.49,44.13,89.6,11.41
339,Sulangan,88,PH,1585387404,67,11.14,123.72,83.52,4.25
340,Murgab,0,TM,1585387404,20,37.5,61.97,66.2,6.93
341,Bontang,78,ID,1585387148,79,0.13,117.5,84.34,6.02
342,Sydney,75,AU,1585387269,93,-33.87,151.21,66.0,6.93
343,Lengshuitan,94,CN,1585387404,68,26.41,111.6,53.01,7.31
344,Usoke,75,TZ,1585387405,83,-5.17,32.35,71.6,9.17
345,Malangali,94,TZ,1585387405,42,-8.57,34.85,79.54,1.66
346,Rome,1,US,1585387274,86,43.21,-75.46,35.01,2.98
347,Seoul,1,KR,1585387251,16,37.57,126.98,55.4,3.36
348,Faya,99,SA,1585387405,40,18.39,42.45,75.2,19.46
349,Esmeraldas,74,BR,1585387406,88,-19.76,-44.31,66.2,5.82
350,Salem,63,IN,1585387406,17,11.65,78.17,98.24,5.08
351,Assiut,0,EG,1585387406,60,27.18,31.18,68.0,11.41
352,Skeldon,64,GY,1585387406,89,5.88,-57.13,75.96,5.1
353,Zorritos,81,PE,1585387384,76,-3.68,-80.68,76.1,4.05
354,Shiraz,90,IR,1585387407,93,29.6,52.54,53.6,6.93
355,Oyama,90,JP,1585387259,87,36.3,139.8,57.0,17.22
356,Buta,40,CD,1585387407,43,2.79,24.73,90.63,4.9
357,Turaif,75,SA,1585387407,68,31.67,38.66,66.2,14.99
358,Tura,0,IN,1585387212,20,25.52,90.22,96.03,11.3
359,Karaton,40,ID,1585387408,66,-6.34,106.1,87.8,5.82
360,Geraldton,75,AU,1585387408,60,-28.77,114.6,73.4,16.11
361,Labuan,75,MY,1585387330,83,5.28,115.24,89.6,3.36
362,Tarrafal,75,CV,1585387408,64,15.28,-23.77,69.8,17.22
363,Kimberley,0,ZA,1585387409,53,-28.73,24.76,77.0,16.11
364,Jumla,36,NP,1585387409,93,29.27,82.18,66.99,9.33
365,Sennar,20,SD,1585387355,7,13.57,33.57,104.02,7.94
366,Ambon City,40,ID,1585387409,70,-3.7,128.18,86.0,8.05
367,Pula,16,HR,1585387409,47,44.87,13.85,59.0,11.41
368,Antalaha,100,MG,1585387409,85,-14.9,50.28,78.78,11.77
369,Dhing,1,IN,1585387410,18,26.47,92.47,99.72,17.29
370,Ngorongoro,100,TZ,1585387410,57,-3.24,35.49,55.8,2.73
371,Shōbara,75,JP,1585387410,100,34.85,133.02,48.99,6.93
372,Bonavista,64,CA,1585387410,96,48.65,-53.11,30.22,17.74
373,Yuncheng,100,CN,1585387410,29,35.02,110.99,55.11,21.25
374,Bima,96,ID,1585387411,81,-8.47,118.72,81.95,1.16
375,Chilca,83,PE,1585387411,88,-12.52,-76.74,69.8,3.36
376,Yumen,42,CN,1585387411,19,40.28,97.2,54.54,13.44
377,Aljezur,5,PT,1585387411,73,37.32,-8.8,59.0,4.7
378,Kyabram,14,AU,1585387411,40,-36.32,145.05,75.0,5.01
379,Sitka,90,US,1585387412,96,57.05,-135.33,33.8,4.7
380,Oddur,29,SO,1585387412,36,4.12,43.89,90.0,15.19
381,Mendoza,0,AR,1585387260,82,-32.89,-68.83,60.8,2.24
382,Sohag,0,EG,1585387242,43,26.56,31.69,71.6,16.11
383,Williamsburg,40,US,1585387200,82,37.27,-76.71,59.0,8.05
384,Azare,15,NG,1585387412,9,11.68,10.19,93.29,4.52
385,Jining,65,CN,1585387413,32,35.41,116.58,57.07,3.24
386,Baharly,46,TM,1585387413,25,38.44,57.43,64.33,11.7
387,Guider,27,CM,1585387413,9,9.93,13.95,100.4,12.75
388,Krk,20,HR,1585387225,58,45.03,14.57,59.0,4.7
389,Kiunga,100,PG,1585387414,95,-6.12,141.29,77.79,0.98
390,Portland,90,US,1585387307,87,45.52,-122.68,46.99,8.05
391,Salalah,40,OM,1585387414,66,17.02,54.09,84.2,10.29
392,Gaya,3,IN,1585387414,43,24.78,85.0,87.8,16.11
393,Alpena,75,US,1585387414,79,45.06,-83.43,34.0,3.2
394,Hirado,75,JP,1585387414,93,33.36,129.55,51.8,16.11
395,Alépé,20,CI,1585387415,83,5.5,-3.66,84.2,5.82
396,Maxcanú,5,MX,1585387415,78,20.58,-89.98,73.99,11.41
397,Warrnambool,98,AU,1585387415,49,-38.38,142.48,78.01,11.63
398,Marzuq,43,YE,1585387415,17,14.4,46.47,84.07,7.54
399,Mbandaka,56,CD,1585387415,49,0.05,18.26,89.55,4.43
400,Mahajanga,40,MG,1585387416,70,-15.72,46.32,89.6,5.82
401,Henderson,1,US,1585387216,26,36.04,-114.98,51.8,11.41
402,Cabedelo,40,BR,1585387416,100,-6.98,-34.83,75.2,4.7
403,Houma,75,US,1585387416,88,29.6,-90.72,75.99,13.87
404,Kahului,1,US,1585387417,77,20.89,-156.47,70.0,8.05
405,Dabat,87,ET,1585387417,6,12.98,37.77,81.97,2.91
406,Maningrida,5,AU,1585387417,74,-12.07,134.27,84.42,8.14
407,Abonnema,100,NG,1585387417,69,4.71,6.79,86.4,5.14
408,Silanga,42,PH,1585387418,64,11.82,124.84,83.19,5.28
409,Kabompo,33,ZM,1585387418,51,-13.59,24.2,77.23,6.64
410,Yārāda,20,IN,1585387418,39,17.65,83.27,98.6,11.41
411,Kyra,0,RU,1585387418,35,49.58,111.98,43.97,13.15
412,Xichang,89,CN,1585387419,25,27.9,102.26,73.36,10.54
413,Sungai Penuh,86,ID,1585387419,61,-2.08,101.38,75.9,2.98
414,Gornozavodsk,100,RU,1585387419,89,58.38,58.32,35.28,7.78
415,Buritis,100,BR,1585387352,78,-15.62,-46.42,68.58,4.03
416,Khuzdar,10,PK,1585387420,16,27.74,66.64,70.99,7.23
417,Muborak,0,UZ,1585387420,22,39.26,65.15,62.49,3.67
418,Malé,40,MV,1585387420,66,4.17,73.51,89.6,10.29
419,Yatou,6,CN,1585387421,55,37.15,122.38,42.51,9.42
420,Cascais,40,PT,1585387262,62,38.7,-9.42,55.99,11.41
421,Maïné Soroa,2,NE,1585387421,8,13.21,12.02,98.13,13.47
422,Jutaí,100,BR,1585387422,94,-5.18,-68.9,74.21,2.06
423,Badlapur,20,IN,1585387422,55,19.15,73.27,98.01,11.41
424,Marsaxlokk,20,MT,1585387422,63,35.84,14.54,60.8,13.87
425,Taltal,10,CL,1585387422,74,-25.4,-70.48,59.43,1.21
426,Hanumāngarh,3,IN,1585387422,28,29.58,74.32,84.06,3.2
427,Warrington,75,GB,1585387395,66,53.39,-2.58,48.99,18.34
428,Nhulunbuy,31,AU,1585387423,78,-12.23,136.77,82.4,8.05
429,Salinópolis,83,BR,1585387423,84,-0.61,-47.36,80.51,11.52
430,Kishorganj,0,BD,1585387423,21,24.43,90.77,100.15,12.97
431,Phalodi,0,IN,1585387423,19,27.13,72.37,85.6,0.45
432,Griffith,90,US,1585387424,100,41.53,-87.42,50.0,9.17
433,Ambanja,75,MG,1585387424,79,-13.68,48.45,77.0,3.4
434,Tambura,33,SS,1585387424,36,5.6,27.47,91.94,7.4
435,Praia,75,CV,1585387424,64,14.92,-23.51,69.8,17.22
436,Mlonggo,40,ID,1585387424,66,-6.53,110.7,87.8,12.75
437,Simao,12,CN,1585387425,15,22.79,100.97,89.62,11.12
438,Tomatlán,32,MX,1585387425,57,19.93,-105.25,66.9,3.96
439,Moussoro,0,TD,1585387425,8,13.64,16.49,100.13,14.9
440,Kokoda,97,PG,1585387425,69,-8.88,147.74,76.82,0.63
441,Uíge,40,AO,1585387425,88,-7.61,15.06,75.2,6.93
442,Boralday,90,KZ,1585387426,38,43.36,76.86,57.2,11.18
443,Karpathos,40,GR,1585387426,59,35.51,27.21,62.6,25.28
444,Chodavaram,20,IN,1585387426,39,17.83,82.95,98.6,11.41
445,Bilma,85,NE,1585387426,10,18.69,12.92,89.69,11.83
446,Nioro,87,GM,1585387427,29,13.35,-15.75,75.54,7.87
447,Northam,7,GB,1585387427,69,51.03,-4.22,46.99,13.0
448,Ziarat,37,PK,1585387427,22,30.38,67.73,48.63,9.48
449,Kindu,100,CD,1585387427,62,-2.95,25.95,78.85,3.89
450,Pithāpuram,0,IN,1585387428,44,17.12,82.27,96.8,11.41
451,Nemuro,75,JP,1585387428,51,43.32,145.57,37.4,6.93
452,Kingsville,90,US,1585387265,83,27.52,-97.86,77.0,10.29
453,Kumul,0,CN,1585387226,21,42.8,93.45,57.0,7.43
454,Wau,73,SS,1585387429,28,7.7,28.0,98.42,7.56
455,Alappuzha,23,IN,1585387429,59,9.49,76.33,89.29,8.23
456,Tessalit,6,ML,1585387429,10,20.2,1.01,89.15,10.31
457,Berbera,77,SO,1585387429,68,10.44,45.01,84.45,11.23
458,Santarém,40,BR,1585387429,100,-2.44,-54.71,77.0,4.7
459,Baoma,100,CN,1585387430,71,31.49,106.11,49.98,9.78
460,Brigantine,90,US,1585387430,76,39.41,-74.36,52.0,6.98
461,Timizart,56,DZ,1585387430,62,36.8,4.27,51.84,3.83
462,Ngama,44,TD,1585387430,8,11.78,17.17,102.07,13.6
463,Mardin,75,TR,1585387431,72,37.31,40.74,62.6,9.17
464,Riverton,90,US,1585387357,51,40.52,-111.94,35.01,2.95
465,Bako,44,ET,1585387431,42,5.78,36.57,80.73,2.89
466,Praia,75,CV,1585387424,64,14.92,-23.51,69.8,17.22
467,Djambala,25,CG,1585387431,50,-2.54,14.75,82.54,4.5
468,Lufkin,75,US,1585387432,83,31.34,-94.73,73.4,9.17
469,Boysun,48,UZ,1585387432,34,38.21,67.2,52.07,3.36
470,Māngrol,0,IN,1585387432,42,21.12,70.12,84.13,16.44
471,Mananjary,19,MG,1585387432,72,-21.22,48.33,83.12,6.67
472,Touros,40,BR,1585387432,94,-5.2,-35.46,75.2,3.36
473,Goshogawara,75,JP,1585387433,47,40.8,140.44,42.01,13.87
474,Alihe,80,CN,1585387433,63,50.57,123.72,34.36,10.33
475,Opuwo,30,NA,1585387433,27,-18.06,13.84,80.65,9.98
476,Ahar,48,IR,1585387433,34,38.48,47.07,55.89,5.12
477,Wukari,97,NG,1585387433,53,7.85,9.78,90.91,7.83
478,Malakal,53,SS,1585387160,13,9.53,31.66,103.8,7.31
479,Florianópolis,20,BR,1585387434,68,-27.61,-48.5,69.01,3.15
480,Brazzaville,20,CG,1585387434,78,-4.27,15.28,87.8,4.7
481,Chinhoyi,64,ZW,1585387434,37,-17.37,30.2,80.13,6.87
482,Viedma,0,AR,1585387434,47,-40.81,-63.0,66.42,6.22
483,Huarmey,100,PE,1585387435,78,-10.07,-78.15,73.67,3.53
484,Caucaia,75,BR,1585387435,94,-3.74,-38.65,77.0,6.93
485,Villarrica,98,PY,1585387435,86,-25.75,-56.43,66.96,3.8
486,Polson,90,US,1585387435,74,47.69,-114.16,37.4,10.29
487,Mangan,95,IN,1585387146,41,27.52,88.53,70.81,0.34
488,Bochnia,3,PL,1585387435,45,49.97,20.43,53.01,5.82
489,Arrecife,20,ES,1585387283,68,28.96,-13.55,66.2,5.82
490,Eureka,90,US,1585387436,100,40.8,-124.16,48.2,6.33
491,Goderich,100,CA,1585387436,73,43.75,-81.72,42.01,9.01
492,Pachino,40,IT,1585387436,81,36.72,15.09,59.0,4.7
493,Kutum,16,SD,1585387436,8,14.2,24.67,91.04,10.89
494,Hima,91,UG,1585387436,47,0.3,30.18,77.77,1.5
495,Nouakchott,99,MR,1585387437,59,18.09,-15.98,64.4,17.22
496,Jiexiu,99,CN,1585387437,28,37.02,111.91,53.73,3.58
497,Pedasí,34,PA,1585387384,89,7.53,-80.03,74.71,9.89
498,Perth,59,AU,1585387245,49,-31.93,115.83,72.0,16.11
499,Saint-Joseph,38,RE,1585387438,70,-21.37,55.62,87.8,8.05
500,Sampit,99,ID,1585387438,70,-2.53,112.95,87.26,1.07
501,Erie,90,US,1585387438,65,42.77,-78.67,46.4,6.93
502,Sakakah,20,SA,1585387438,33,29.97,40.21,77.0,10.29
503,Nabire,64,ID,1585387438,83,-3.37,135.48,80.78,3.89
504,Pemangkat,20,ID,1585387439,77,1.17,108.97,83.1,9.22
505,Krasnogorsk,44,RU,1585387439,30,55.82,37.32,60.8,6.71
506,Carballo,17,ES,1585387324,75,43.21,-8.69,55.99,6.93
507,Basco,28,PH,1585387439,83,20.45,121.97,80.53,9.26
508,Garoowe,86,SO,1585387427,34,8.41,48.48,86.63,12.26
509,Mwense,48,ZM,1585387440,52,-10.38,28.7,81.36,2.86
510,Denpasar,40,ID,1585387440,74,-8.65,115.22,87.8,5.82
511,Vanimo,73,PG,1585387440,81,-2.67,141.3,81.7,9.24
512,Āsmār,82,AF,1585387441,42,35.03,71.36,57.49,1.72
513,Passos,51,BR,1585387441,72,-20.72,-46.61,62.96,3.87
514,Kununurra,50,AU,1585387441,25,-15.77,128.73,96.8,6.93
515,Marfino,53,RU,1585387442,31,55.7,37.38,60.8,11.18
516,Shenjiamen,100,CN,1585387442,76,29.96,122.3,48.38,25.03
517,Preobrazheniye,33,RU,1585387442,76,42.9,133.91,33.89,8.52
518,Forbes,61,AU,1585387442,44,-33.38,148.02,73.99,1.01
519,Kourou,85,GF,1585387442,100,5.16,-52.65,75.2,2.24
520,Itambé,89,BR,1585387442,82,-15.24,-40.62,68.11,3.53
521,Saint-Junien,98,FR,1585387443,61,45.88,0.9,53.01,3.36
522,Daguit,17,PH,1585387443,72,14.19,122.73,82.27,8.21
523,Sandpoint,90,US,1585387443,86,48.28,-116.55,39.2,5.82
524,Salinas,90,US,1585387226,81,36.68,-121.66,50.0,0.54
525,Baghdad,75,IQ,1585387169,49,33.34,44.4,73.4,10.29
526,Stawell,100,AU,1585387444,43,-37.05,142.77,72.09,10.11
527,Mgandu,100,TZ,1585387444,57,-5.95,34.13,71.06,5.73
528,Bluefields,43,NI,1585387444,88,12.01,-83.76,76.08,9.06
529,Marabu,75,MY,1585387444,94,4.41,114.01,80.6,6.24
530,Palauig,24,PH,1585387445,65,15.44,119.9,85.01,10.47
531,Bredasdorp,0,ZA,1585387445,49,-34.53,20.04,73.4,13.87
532,Linxia Chengguanzhen,100,CN,1585387445,35,35.6,103.21,43.32,1.39
533,Ormara,0,PK,1585387446,48,25.21,64.64,80.4,12.8
534,Tabas,3,IR,1585387408,24,33.6,56.92,71.6,2.24
535,Senanga,41,ZM,1585387447,47,-16.12,23.27,80.08,8.32
536,Necochea,26,AR,1585387447,96,-38.55,-58.74,69.01,5.99
537,Camocim,52,BR,1585387447,93,-2.9,-40.84,74.86,5.82
538,Ugoofaaru,60,MV,1585387447,68,5.67,73.0,84.42,8.59
539,Kakonko,100,TZ,1585387448,65,-3.28,30.96,64.2,5.17
540,Mitsamiouli,40,KM,1585387448,70,-11.38,43.28,87.8,4.7
541,Çanakkale Province,75,TR,1585387448,87,40.08,26.83,50.0,6.93
542,Zorgo,29,BF,1585387448,9,12.25,-0.62,93.2,4.94
543,Buk,7,PL,1585387448,35,52.36,16.52,55.4,5.82
544,Izumo,75,JP,1585387449,81,35.37,132.77,48.2,10.29
545,Guasdualito,75,VE,1585387449,35,7.24,-70.73,77.13,5.61
546,Tamiahua,18,MX,1585387449,92,21.27,-97.45,74.37,5.21
547,Kananga,99,CD,1585387449,50,-5.9,22.42,84.74,2.68
548,Greencastle,75,US,1585387224,93,39.64,-86.86,68.0,5.82
549,Tokmak,43,UA,1585387449,39,47.25,35.71,55.04,15.99
550,Xingyi,39,CN,1585387450,17,24.19,102.82,80.1,16.37
551,Kaniama,89,CD,1585387450,60,-7.57,24.18,78.78,1.79
552,Tabou,34,CI,1585387450,74,4.42,-7.35,83.79,4.65
553,Cayhagan,88,PH,1585387451,71,9.67,122.43,85.37,7.72
554,Rozkishne,99,UA,1585387451,34,48.5,37.59,56.59,18.66
555,Ambovombe,16,MG,1585387451,57,-25.17,46.08,86.36,3.06
556,Tsimmerbude,22,RU,1585387451,32,54.67,20.13,55.4,4.47
557,Acarí,99,PE,1585387452,70,-15.43,-74.62,72.12,3.42
558,Kayattār,60,IN,1585387452,28,8.95,77.8,97.43,9.17
559,Aquiraz,75,BR,1585387452,94,-3.9,-38.39,77.0,6.93
560,Talara,12,PE,1585387452,77,-4.58,-81.27,74.64,7.47
561,Kirksville,90,US,1585387190,100,40.19,-92.58,51.8,4.7
562,Cleveland,90,US,1585387154,87,41.5,-81.7,52.0,11.41
563,Kalmunai,73,LK,1585387453,61,7.42,81.82,85.93,9.35
564,Bosaso,20,SO,1585387453,94,11.28,49.18,82.4,19.46
565,Gallup,1,US,1585387453,85,35.53,-108.74,23.0,8.05
566,Tulare,1,US,1585387453,93,36.27,-118.8,46.4,8.05
567,Ust'-Koksa,98,RU,1585387454,52,50.27,85.61,34.09,13.91
568,Ulaangom,100,MN,1585387454,85,49.98,92.07,15.08,3.51
569,Dekar,0,BW,1585387454,32,-21.53,21.93,85.03,12.19
570,Yuzhno-Kurilsk,70,RU,1585387454,91,44.03,145.86,31.86,11.43
571,Shaoxing,40,CN,1585387455,75,30.01,120.57,52.0,6.71
572,Seynod,88,FR,1585387455,57,45.89,6.09,52.0,1.12
573,Magdalena,20,PH,1585387455,43,14.2,121.43,91.4,9.17
574,Waupun,90,US,1585387456,93,43.63,-88.73,43.0,9.17
575,Terme,75,TR,1585387456,76,41.21,36.97,51.8,5.82
576,Bucerías,75,MX,1585387456,94,20.75,-105.33,68.0,6.13
577,Johi,0,PK,1585387456,16,26.69,67.61,90.99,2.93
578,Pandan,12,PH,1585387456,76,14.05,124.17,82.53,4.34
579,Ambositra,51,MG,1585387457,49,-20.52,47.25,76.41,3.69
580,Calabozo,81,VE,1585387457,72,8.92,-67.43,70.45,6.78
581,Kolokani,71,ML,1585387457,14,13.57,-8.03,89.37,6.55
582,Terney,94,RU,1585387457,85,45.05,136.61,31.15,8.88
583,Fredonia,90,US,1585387458,65,42.44,-79.33,48.0,5.82
584,Jacareacanga,100,BR,1585387458,88,-6.22,-57.75,70.61,1.68
585,Kendal,20,GB,1585387458,66,54.33,-2.75,50.0,13.87
586,Kapit,89,MY,1585387458,61,2.02,112.93,87.01,4.0
587,Quelimane,75,MZ,1585387452,66,-17.88,36.89,87.8,2.24
588,Mīnāb,40,IR,1585387459,44,27.15,57.08,80.6,9.17
589,Annau,40,TM,1585387459,25,37.89,58.52,64.4,13.87
590,Humaitá,100,BR,1585387459,96,-7.51,-63.02,74.62,2.89
591,Batticaloa,79,LK,1585387459,60,7.71,81.69,86.18,9.91
592,Lakeway,1,US,1585387460,94,30.36,-97.98,73.4,9.17
593,Zhanakorgan,0,KZ,1585387460,26,43.91,67.25,60.96,11.56
594,Dhūri,0,IN,1585387444,33,30.37,75.87,82.69,8.5
595,Khāsh,4,IR,1585387460,20,28.22,61.22,66.65,5.06
596,Indianola,90,US,1585387461,93,41.36,-93.56,48.99,4.05
597,Malanje,75,AO,1585387461,88,-9.54,16.34,73.4,6.93
598,Samaná,2,DO,1585387275,81,19.21,-69.34,71.71,8.03
599,Tocopilla,27,CL,1585387461,44,-22.09,-70.2,67.84,2.3
600,Greenville,1,US,1585387268,87,35.61,-77.37,66.2,5.19
601,Anloga,20,GH,1585387462,74,5.79,0.9,84.2,10.29
602,Cooma,89,AU,1585387462,62,-36.23,149.13,53.6,9.17
603,Mingyue,0,CN,1585387463,61,43.11,128.92,34.27,7.58
604,Aksu,100,CN,1585387463,19,41.12,80.26,59.45,4.36
605,Lobito,20,AO,1585387463,74,-12.35,13.55,82.4,9.17
606,Manono,100,CD,1585387463,60,-7.3,27.42,83.75,2.17
607,Bara,75,NG,1585387463,11,10.37,10.73,97.75,4.23
608,Kapuskasing,5,CA,1585387464,68,49.42,-82.43,28.4,6.93
609,Marawi,89,PH,1585387464,75,8.0,124.29,73.02,3.85
610,San Miguel de Tucumán,75,AR,1585387280,93,-26.82,-65.22,62.6,3.36
611,Halifax,20,CA,1585387345,92,44.65,-63.57,33.01,11.41
612,Manavālakurichi,20,IN,1585387465,59,8.13,77.3,89.6,8.05
613,Zonguldak,100,TR,1585387465,77,41.25,31.83,45.88,4.52
614,Sulina,9,RO,1585387465,57,45.16,29.65,52.54,10.13
615,Elliot,0,ZA,1585387465,18,-31.33,27.85,71.46,13.62
616,Georgiyevka,40,KZ,1585387171,35,43.04,74.71,57.2,13.42
617,Ankang,100,CN,1585387466,47,32.68,109.02,53.58,5.3
618,Beatrice,90,US,1585387466,100,40.27,-96.75,46.4,5.82
619,Isoka,96,ZM,1585387466,54,-10.16,32.63,75.07,2.46
620,Hobart,55,AU,1585387240,43,-42.88,147.33,71.6,14.99
621,Kumbo,97,CM,1585387467,40,6.2,10.67,76.08,1.01
622,Nurota,0,UZ,1585387467,14,40.56,65.69,62.6,4.7
623,Cuamba,63,MZ,1585387467,64,-14.8,36.54,80.33,3.15
624,Rafai,70,CF,1585387467,43,4.95,23.92,89.47,6.06
625,Iporá,22,BR,1585387467,82,-16.44,-51.12,67.1,2.33
626,Ende,78,ID,1585387468,73,-8.84,121.66,83.57,5.68
627,Bend,40,US,1585387373,65,44.06,-121.32,41.0,9.17
628,Codajás,100,BR,1585387468,95,-3.84,-62.06,73.71,2.39
629,Marquette,40,US,1585387469,81,46.53,-87.63,37.99,3.22
630,Clarksburg,75,US,1585387469,87,39.28,-80.34,55.99,3.58
631,Lobatse,75,BW,1585387469,56,-25.22,25.67,73.4,16.11
632,Araguaçu,100,BR,1585387469,88,-12.93,-49.83,72.01,6.06
633,Ayorou,74,NE,1585387469,8,14.73,0.92,94.91,8.08
634,Saposoa,100,PE,1585387470,79,-6.93,-76.77,70.52,1.68
635,Hasaki,75,JP,1585387470,93,35.73,140.83,51.01,12.75
636,Buchanan,75,LR,1585387470,94,5.88,-10.05,82.4,5.82
637,Maun,75,BW,1585387471,100,-19.98,23.42,69.8,3.36
638,Senneterre,1,CA,1585387471,92,48.38,-77.23,12.2,6.93
639,Cambuga,27,PH,1585387471,60,13.62,122.45,84.29,0.56
640,Fomboni,100,KM,1585387471,68,-12.28,43.74,84.85,5.79
641,Mwinilunga,64,ZM,1585387471,46,-11.74,24.43,79.02,2.26
642,Eyl,79,SO,1585387472,59,7.98,49.82,86.07,15.39
643,Chunian,1,PK,1585387472,30,30.96,73.98,82.54,6.26
644,Avon,90,US,1585387472,87,41.45,-82.04,53.6,9.17
645,Suratgarh,1,IN,1585387472,26,29.32,73.9,84.15,1.95
646,Hualmay,98,PE,1585387472,83,-11.1,-77.61,71.42,5.06
647,Temple,75,US,1585387473,100,31.1,-97.34,73.4,13.87
648,Goundam,68,ML,1585387473,11,16.41,-3.67,94.28,12.24
649,Corowa,0,AU,1585387473,48,-36.03,146.38,71.6,3.36
650,Uromi,91,NG,1585387473,64,6.7,6.33,83.61,4.72
651,Lukulu,69,ZM,1585387473,54,-14.37,23.24,75.63,6.98
652,Chipinge,99,ZW,1585387474,62,-20.19,32.62,67.15,5.77
653,Cootamundra,57,AU,1585387474,45,-34.65,148.03,66.99,1.01
654,Nanortalik,100,GL,1585387474,79,60.14,-45.24,36.9,36.08
655,Cabra,76,ES,1585387474,62,37.47,-4.44,55.99,10.29
656,Yazd,90,IR,1585387474,30,31.9,54.37,68.0,6.93
657,Ixtapa,75,MX,1585387475,94,20.7,-105.2,68.0,4.56
658,Ginda,16,IN,1585387475,24,30.69,78.49,61.72,5.53
659,Bacungan,20,PH,1585387475,70,9.91,118.7,87.8,11.41
660,Zaozyornoye,65,UA,1585387341,60,45.16,33.28,53.73,5.99
661,Luanda,75,AO,1585387413,66,-8.84,13.23,86.0,5.82
662,Lábrea,100,BR,1585387476,89,-7.26,-64.8,75.9,2.37
663,Bururi Province,100,BI,1585387476,59,-3.85,29.63,59.13,1.23
664,Bālāghāt,19,IN,1585387476,22,21.8,80.18,97.14,7.38
665,Rocha,100,UY,1585387477,90,-34.48,-54.33,66.27,8.57
666,Jiangyou,100,CN,1585387477,62,31.77,104.72,51.42,5.35
667,Cukai,20,MY,1585387397,79,4.25,103.42,89.6,6.93
668,Chimbote,100,PE,1585387477,81,-9.09,-78.58,72.72,4.88
669,Albac,18,RO,1585387477,50,46.45,22.97,54.0,3.36
670,Teruel,90,ES,1585387478,93,40.67,-0.67,50.0,6.93
671,Ahome,2,MX,1585387478,69,25.92,-109.18,60.01,11.01
672,Lamu,89,KE,1585387478,60,-2.27,40.9,88.66,2.77
673,Miyako,33,JP,1585387478,56,39.64,141.95,46.26,12.39
674,Batié,70,BF,1585387478,47,9.88,-2.92,88.18,6.35
675,Vasylivka,46,UA,1585387479,13,47.44,35.27,62.6,17.9
676,Baoding,11,CN,1585387240,31,38.85,115.49,55.47,8.97
677,Balikpapan,20,ID,1585387479,79,-1.27,116.83,86.0,5.82
678,Jinxiang,71,CN,1585387479,65,22.86,115.7,73.0,3.0
679,Aného,20,TG,1585387479,74,6.23,1.6,84.2,10.29
680,Sassandra,17,CI,1585387480,75,4.95,-6.08,83.68,4.59
681,Mitzic,11,GA,1585387480,52,0.78,11.55,85.51,2.44
682,Kasongo,100,CD,1585387480,78,-4.45,26.67,73.72,2.08
683,Anito,64,PH,1585387480,71,12.45,125.29,82.18,7.72
684,Nizāmābād,33,IN,1585387480,19,18.67,78.12,98.91,1.95
685,Sorong,97,ID,1585387481,83,-0.88,131.25,82.09,4.05
686,Pimentel,99,PE,1585387481,82,-6.84,-79.93,72.5,7.7
687,Hazorasp,0,UZ,1585387481,15,41.32,61.07,64.4,13.87
688,Gaurnadi,0,BD,1585387481,24,22.97,90.23,99.07,3.04
689,Kisesa,100,TZ,1585387482,63,-3.08,34.15,64.63,2.53
690,Prado,41,BR,1585387482,85,-17.34,-39.22,74.91,9.73
691,Kroya,100,ID,1585387482,82,-7.63,109.25,82.67,3.94
692,Havre-St-Pierre,1,CA,1585387482,62,50.23,-63.6,23.0,12.75
693,Iquitos,75,PE,1585387482,94,-3.75,-73.25,75.2,5.82
694,Huilong,100,CN,1585387482,75,31.81,121.66,53.01,16.82
695,Alegrete,60,BR,1585387483,61,-29.78,-55.79,70.5,6.91
696,Rohri,20,PK,1585387483,45,27.69,68.9,86.0,6.93
697,Poceirão,93,PT,1585387483,66,38.83,-8.79,55.99,10.29
698,Wer,0,IN,1585387483,22,27.0,77.17,86.81,6.8
699,Ihosy,40,MG,1585387483,52,-22.4,46.12,80.74,4.23
700,Lae,89,PG,1585387483,72,-6.72,146.98,81.14,0.96
701,Mahabalipuram,20,IN,1585387484,52,12.63,80.17,91.4,12.75
702,Kruisfontein,28,ZA,1585387484,26,-34.0,24.73,79.48,4.65
703,Gouyave,20,GD,1585387484,78,12.16,-61.73,77.0,4.7
704,Fare,26,PF,1585387484,66,-16.7,-151.02,84.13,6.6
705,Lampang,16,TH,1585387485,20,18.33,99.5,108.0,4.7
706,Araouane,59,ML,1585387485,13,18.9,-3.53,89.42,5.1
707,Lingao,3,CN,1585387485,76,19.91,109.69,79.95,9.71
708,Akçakoca,100,TR,1585387485,82,41.09,31.12,49.37,4.27
709,Ohafia,100,NG,1585387485,68,5.62,7.83,84.7,4.45
710,Novoderevyankovskaya,80,RU,1585387486,38,46.32,38.75,56.91,19.28
711,Joshīmath,15,IN,1585387486,15,30.57,79.57,59.41,6.91
712,Livingston,20,GB,1585387486,70,55.9,-3.52,46.99,6.93
713,Ukiah,90,US,1585387486,81,39.15,-123.21,48.0,1.14
714,Sibolga,89,ID,1585387486,81,1.74,98.78,81.52,7.29
715,Celestún,0,MX,1585387265,79,20.87,-90.4,73.81,17.31
716,Dalbandin,29,PK,1585387487,18,28.89,64.41,73.72,2.73
717,Cairns,75,AU,1585387487,78,-16.92,145.77,78.8,14.99
718,Sochi,51,RU,1585387382,45,43.6,39.73,66.0,8.95
719,Riviere-au-Renard,5,CA,1585387487,53,49.0,-64.4,26.6,12.75
720,Vilhena,100,BR,1585387375,85,-12.74,-60.15,69.4,2.24
721,Tombouctou,100,ML,1585387488,15,20.0,-3.0,86.81,5.84
722,Auraiya,0,IN,1585387488,16,26.47,79.52,93.6,12.86
723,Shache,95,CN,1585387488,18,38.42,77.24,61.32,4.72
724,Mopipi,0,BW,1585387488,36,-21.18,24.88,83.3,15.26
725,Mogapi,90,BW,1585387489,69,-22.32,27.83,75.2,12.75
726,Iturama,93,BR,1585387489,81,-19.73,-50.2,68.77,8.16
727,Tikrit,39,IQ,1585387489,36,34.61,43.68,76.23,7.81
728,Leh,98,IN,1585387345,19,34.17,77.58,32.94,4.81
729,Oruzgan,49,AF,1585387489,23,32.83,66.0,53.55,7.63
730,Pundaguitan,100,PH,1585387490,75,6.37,126.17,82.17,13.96
731,Boueni,95,YT,1585387490,70,-12.9,45.08,87.8,8.05
732,Palmerston,75,AU,1585387490,66,-12.49,130.98,87.8,9.17
733,Falam,0,MM,1585387263,14,22.92,93.68,85.73,6.51
734,Ransang,37,PH,1585387491,73,8.96,117.58,83.68,6.42
735,Mokhotlong,0,LS,1585387491,17,-29.29,29.07,61.92,6.04
736,Maxixe,40,MZ,1585387491,88,-23.86,35.35,77.0,4.7
737,Balkanabat,58,TM,1585387491,25,39.51,54.37,61.52,10.76
738,Guinguinéo,75,SN,1585387491,47,14.27,-15.95,75.2,6.93
739,Pacifica,90,US,1585387492,81,37.61,-122.49,53.01,4.7
740,Teknāf,0,BD,1585387492,46,20.86,92.31,89.28,14.85
741,Cercal,49,PT,1585387444,66,37.81,-8.67,54.0,1.01
742,Yinchuan,99,CN,1585387492,21,38.47,106.27,57.27,4.61
743,Riyadh,90,SA,1585387492,14,24.69,46.72,95.0,6.93
744,Sijunjung,91,ID,1585387493,60,-0.69,100.95,86.94,1.16
745,Kayunga,91,UG,1585387493,48,0.7,32.89,77.27,4.68
746,Davila,40,PH,1585387493,83,18.47,120.58,82.4,10.29
747,Arrondissement de Bastia,20,FR,1585387249,67,42.67,9.33,59.0,6.93
748,Makkah al Mukarramah,6,SA,1585387494,23,21.43,39.83,95.22,25.41
749,Kabrāi,0,IN,1585387494,32,25.42,80.02,93.2,3.36
750,Nushki,7,PK,1585387494,19,29.55,66.02,69.89,9.08
751,Feni,0,BD,1585387495,30,23.02,91.41,95.13,10.74
752,Namie,75,JP,1585387495,70,37.48,141.0,52.0,14.99
753,Sarkand,86,KZ,1585387495,36,45.41,79.92,48.99,9.78
754,Owando,45,CG,1585387495,52,-0.48,15.9,88.66,3.85
755,Morón,55,AR,1585387496,94,-34.65,-58.62,73.4,2.24
756,Larap,15,PH,1585387496,74,14.3,122.65,82.85,10.31
757,Claresholm,1,CA,1585387496,64,50.03,-113.59,37.0,28.86
758,Birjand,20,IR,1585387452,31,32.87,59.22,60.8,11.41
759,Jacmel,12,HT,1585387497,83,18.23,-72.53,73.4,8.05
760,Camalú,0,MX,1585387498,69,30.85,-116.07,51.49,4.9
761,Tigzirt,54,DZ,1585387498,63,36.89,4.12,55.49,4.94
762,Veshenskaya,28,RU,1585387498,61,49.63,41.73,52.86,14.47
763,Emerald,29,AU,1585387498,57,-23.53,148.17,79.0,6.93
764,Benghazi,7,LY,1585387209,48,32.12,20.07,65.66,18.59
765,Māgadi,3,IN,1585387499,14,12.97,77.23,93.2,4.7
766,Chalakudi,40,IN,1585387499,59,10.3,76.34,93.2,11.41
767,Jérémie,38,HT,1585387499,77,18.65,-74.12,75.13,7.4
768,Santa Cruz,63,MA,1585387209,82,30.42,-9.6,60.8,5.82
769,Abadan,40,TM,1585387500,25,38.05,58.21,64.4,13.87
770,Khargone,22,IN,1585387500,22,21.82,75.6,95.22,1.92
771,Along,96,IN,1585387500,61,28.17,94.77,70.45,1.88
772,Kingman,1,US,1585387501,44,35.19,-114.05,54.0,3.22
773,Bela,51,IN,1585387501,15,25.93,81.98,95.52,14.12
774,Sechura,60,PE,1585387501,79,-5.56,-80.82,73.94,6.71
775,Birao,33,CF,1585387501,17,10.28,22.79,100.76,8.25
776,Mitú,89,CO,1585387489,88,1.2,-70.17,73.54,1.48
777,Dolinsk,40,RU,1585387502,90,47.35,142.8,32.0,13.42
778,Barcelos,92,PT,1585387502,54,41.54,-8.62,57.0,4.7
779,Barra de Tecoanapa,0,MX,1585387265,77,16.52,-98.75,73.36,3.53
780,Ranong,20,TH,1585387502,56,9.97,98.63,93.2,10.29
781,Manggar,100,ID,1585387502,74,-2.88,108.27,84.06,7.18
782,Warri,100,NG,1585387503,67,5.52,5.75,87.26,4.92
783,Bowen,40,AU,1585387503,83,-20.02,148.23,79.0,9.17
784,Bonthe,100,SL,1585387503,73,7.53,-12.51,83.37,1.57
785,Lucea,20,JM,1585387503,78,18.45,-78.17,75.2,5.82
786,Beloha,17,MG,1585387503,53,-25.17,45.05,86.23,10.25
787,Chardara,0,KZ,1585387504,26,41.25,67.97,64.27,5.82
788,Wajima,90,JP,1585387504,56,37.4,136.9,42.8,8.05
789,Arcata,90,US,1585387383,87,40.87,-124.08,48.2,3.36
790,Philadelphia,90,US,1585387241,76,39.95,-75.16,52.0,5.82
791,Acaponeta,100,MX,1585387254,67,22.5,-105.36,65.28,2.42
792,Plouzané,90,FR,1585387505,87,48.38,-4.62,46.4,9.17
793,Binga,86,ZW,1585387505,52,-17.62,27.34,80.74,6.49
794,Ţahţā,0,EG,1585387506,43,26.77,31.5,73.4,16.11
795,Denizli Province,75,TR,1585387506,66,37.84,29.07,51.8,10.29
796,Merke,80,KZ,1585387506,37,42.87,73.18,55.47,7.78
797,Alyangula,0,AU,1585387506,70,-13.85,136.42,86.0,3.36
798,Krishnanagar,0,IN,1585387506,19,23.4,88.5,102.92,13.24
799,Iquique,23,CL,1585387506,72,-20.22,-70.14,64.4,4.7
800,Inongo,25,CD,1585387507,46,-1.95,18.27,91.6,2.19
801,Iracoubo,99,GF,1585387507,87,5.48,-53.2,77.4,7.87
802,Hirara,75,JP,1585387507,94,24.8,125.28,69.8,11.41
803,Shizunai-furukawachō,100,JP,1585387507,74,42.33,142.37,36.54,14.63
804,Socuéllamos,2,ES,1585387507,97,39.29,-2.79,45.0,1.99
805,Nuristan,92,AF,1585387508,29,35.3,70.83,25.23,4.85
806,Gijang,75,KR,1585387508,53,35.24,129.21,50.0,10.29
807,Luena,75,AO,1585387508,88,-11.78,19.92,71.6,4.94
808,Enshi,100,CN,1585387508,62,30.3,109.48,51.33,2.04
809,Maragogi,16,BR,1585387508,80,-9.01,-35.22,79.54,4.27
810,Panubigan,84,PH,1585387508,73,7.43,123.35,84.33,8.39
811,Mahibadhoo,5,MV,1585387265,67,3.78,72.97,84.13,9.53
812,Grand-Santi,98,GF,1585387509,96,4.25,-54.38,72.3,1.63
813,Coroieşti,72,RO,1585387509,49,46.25,27.48,55.0,16.11
814,Gondanglegi,100,ID,1585387509,82,-7.75,112.01,82.9,3.74
815,Oxford,75,GB,1585387509,75,51.75,-1.26,48.99,21.92
816,Kearney,90,US,1585387373,93,40.7,-99.08,42.01,11.41
817,Freetown,100,SL,1585387273,73,8.48,-13.23,80.92,4.09
818,Lunenburg,0,CA,1585387510,92,44.38,-64.32,33.01,13.09
819,Peniche,55,PT,1585387510,66,39.36,-9.38,57.0,10.29
820,Selma,1,US,1585387510,100,36.57,-119.61,46.4,3.22
821,Iralaya,0,HN,1585387511,85,15.0,-83.23,75.56,6.22
822,Khanbari,57,NP,1585387511,19,27.37,87.2,82.87,5.46
823,Pagudpud,40,PH,1585387511,83,18.56,120.79,82.4,10.29
824,Kaihua,39,CN,1585387511,35,23.37,104.28,75.9,14.09
825,Baracoa,25,CU,1585387512,77,20.35,-74.5,75.99,14.79
826,Prata,77,BR,1585387512,77,-19.31,-48.92,66.87,6.93
827,Ashquelon,40,IL,1585387295,60,31.67,34.57,68.0,12.75
828,Nago,75,JP,1585387513,88,26.59,127.98,75.2,23.04
829,Mathathane,22,BW,1585387513,37,-22.27,28.75,79.52,17.65
830,Kabare,96,CD,1585387513,54,-2.47,28.82,68.04,2.71
831,Nsanje,49,MW,1585387513,56,-16.92,35.26,86.88,6.06
832,Belleville,75,CA,1585387514,92,44.18,-77.37,33.01,5.82
833,Novikovo,72,RU,1585387514,52,51.15,37.89,53.42,11.5
834,Newport,20,GB,1585387514,70,51.59,-3.0,48.0,24.16
835,Ubari,22,LY,1585387515,19,26.59,12.78,75.63,12.71
836,Ponnāni,20,IN,1585387515,52,10.77,75.93,93.2,10.29
837,Summerville,90,US,1585387515,93,33.02,-80.18,69.01,4.72
838,Kupang,75,ID,1585387515,100,-10.17,123.58,77.0,9.17
839,Tibú,92,CO,1585387515,75,8.64,-72.74,73.89,1.16
840,Taloqan,24,AF,1585387515,30,36.74,69.53,60.04,6.24
841,Chilakalūrupet,2,IN,1585387516,24,16.08,80.17,100.83,11.34
842,Nara,75,JP,1585387261,87,34.69,135.8,52.0,9.17
843,Zavallya,0,UA,1585387516,43,48.21,30.02,56.32,7.85
844,Biltine,39,TD,1585387516,8,14.53,20.92,104.18,15.43
845,Raxaul,80,IN,1585387517,16,26.98,84.85,96.66,17.63
846,Korem,74,ET,1585387517,14,12.51,39.52,71.74,7.61
847,Panguipulli,90,CL,1585387517,100,-39.63,-72.33,55.4,5.82
848,Boyolangu,100,ID,1585387518,81,-8.12,111.89,80.71,1.74
849,Myanaung,56,MM,1585387518,14,18.28,95.32,105.39,5.93
850,Palladam,20,IN,1585387518,37,10.98,77.3,96.8,4.7
851,Oistins,20,BB,1585387435,78,13.07,-59.53,77.0,14.99
852,Iaciara,74,BR,1585387519,80,-14.1,-46.63,67.93,2.01
853,Zharkent,94,KZ,1585387519,27,44.16,80.0,58.68,11.72
854,Linqing,80,CN,1585387519,27,36.85,115.71,57.52,4.14
855,Sturgis,90,US,1585387520,100,41.8,-85.42,46.99,6.93
856,Kushiro,20,JP,1585387520,32,42.98,144.37,39.2,12.75
857,Beberibe,75,BR,1585387520,94,-4.18,-38.13,77.0,6.93
858,Minbu,16,MM,1585387520,16,20.18,94.88,107.01,5.48
859,Yushu,0,CN,1585387521,51,44.8,126.53,39.2,10.38
860,Talcahuano,0,CL,1585387521,100,-36.72,-73.12,50.0,3.36
861,Épinal,49,FR,1585387279,70,48.18,6.45,52.0,4.7
862,Tautira,97,PF,1585387521,74,-17.73,-149.15,80.6,3.36
863,Otavi,14,NA,1585387522,33,-19.65,17.33,79.72,11.27
864,Keetmanshoop,0,NA,1585387522,17,-26.58,18.13,84.2,6.93
865,Eskişehir,75,TR,1585387522,93,39.78,30.52,44.6,10.29
866,Dubuque,90,US,1585387522,100,42.48,-90.87,46.99,13.87
867,Niwāri,0,IN,1585387522,47,28.88,77.53,78.8,11.41
868,Ismailia,40,EG,1585387523,72,30.6,32.27,68.0,9.17
869,Takoradze,11,GH,1585387389,73,4.88,-1.76,84.31,4.83
870,Nālūt,19,LY,1585387523,15,30.33,10.85,75.47,19.6
871,Djibo,83,BF,1585387523,11,14.1,-1.63,88.39,9.6
872,Kukshi,0,IN,1585387523,15,22.2,74.75,96.98,6.89
873,Murrieta,1,US,1585387524,86,33.55,-117.21,51.01,2.06
874,Sinop Province,75,TR,1585387524,81,41.77,34.87,51.8,10.29
875,Tarabuco,88,BO,1585387524,43,-19.17,-64.92,47.19,3.65
876,Lusambo,100,CD,1585387524,49,-4.97,23.45,85.69,1.88
877,Lorsch,0,DE,1585387524,50,49.65,8.57,57.2,4.7
878,Panambi,84,BR,1585387525,57,-28.29,-53.5,65.93,9.28
879,Tarragona,98,ES,1585387525,58,41.13,1.25,60.01,3.36
880,Sântandrei,0,RO,1585387525,41,47.07,21.85,61.0,5.82
881,Chimoré,93,BO,1585387253,85,-16.98,-65.13,72.37,2.1
882,Luján,70,AR,1585387526,88,-34.57,-59.1,73.4,3.36
883,Sundargarh,33,IN,1585387526,39,22.12,84.03,96.8,1.12
884,Arrondissement de Villefranche-de-Rouergue,29,FR,1585387526,50,44.33,2.0,51.8,4.7
885,Miranda,75,CO,1585387527,83,3.25,-76.23,71.6,4.7
886,Bembèrèkè,2,BJ,1585387527,43,10.23,2.66,87.57,4.94
887,Maiduguri,59,NG,1585387527,9,11.85,13.16,99.12,13.06
888,Hinesville,1,US,1585387264,100,31.85,-81.6,69.8,5.82
889,Gwadar,0,PK,1585387478,60,25.12,62.33,77.14,11.83
890,Kitob,52,UZ,1585387528,31,39.08,66.83,60.31,5.61
891,Luba,20,GQ,1585387528,74,3.46,8.55,87.8,9.17
892,Juruti,100,BR,1585387528,92,-2.15,-56.09,75.61,3.67
893,Kasongo-Lunda,91,CD,1585387528,46,-6.47,16.82,89.38,1.05
894,Manakara,13,MG,1585387528,75,-22.13,48.02,82.83,7.99
895,Sakaiminato,75,JP,1585387528,81,35.55,133.23,48.2,11.41
896,Ouésso,60,CG,1585387529,44,1.61,16.05,90.36,4.56
897,Tougue,19,GN,1585387529,23,11.47,-11.6,83.66,6.06
898,Levice,0,SK,1585387529,45,48.22,18.61,51.8,1.12
899,Mushie,45,CD,1585387529,51,-3.02,16.9,89.91,2.66
900,Ji’an,98,CN,1585387530,75,27.12,114.98,53.2,6.58
901,Mafinga,100,TZ,1585387530,59,-7.25,35.07,77.09,3.83
902,Dunn,90,US,1585387531,100,44.95,-91.88,46.99,5.82
903,Aitape,48,PG,1585387531,83,-3.14,142.35,81.21,8.86
904,Diffa,6,NE,1585387531,8,13.32,12.61,98.01,14.14
905,Carlisle,90,US,1585387531,71,40.2,-77.19,53.6,6.93
906,Colares,35,PT,1585387531,62,38.8,-9.45,55.99,11.41
907,Makokou,25,GA,1585387532,49,0.57,12.86,87.46,2.48
908,Kamakwie,92,SL,1585387532,59,9.5,-12.23,84.4,3.02
909,Calvinia,0,ZA,1585387532,19,-31.47,19.78,75.2,5.82
910,Taft,90,IR,1585387532,30,31.75,54.21,68.0,6.93
911,Grenville,20,GD,1585387533,78,12.12,-61.62,77.0,4.7
912,Arrondissement de Muret,19,FR,1585387533,54,43.33,1.25,54.0,4.7
913,Pirapó,100,PY,1585387533,56,-26.85,-55.53,69.8,1.3
914,Jiangyin,84,CN,1585387533,65,31.93,120.31,51.01,9.33
915,Ewo,37,CG,1585387533,53,-0.87,14.82,87.8,4.65
916,Conde,40,BR,1585387534,100,-7.26,-34.91,75.2,4.7
917,Methóni,75,GR,1585387534,67,36.82,21.7,60.8,5.82
918,Itoman,75,JP,1585387534,94,26.12,127.67,75.2,23.04
919,Lebane,100,RS,1585387534,50,42.92,21.74,51.8,8.05
920,Wenling,100,CN,1585387535,82,28.37,121.36,51.01,15.9
921,Gushikawa,75,JP,1585387535,88,26.35,127.87,75.2,23.04
922,Chicama,98,PE,1585387535,71,-7.84,-79.15,73.44,2.75
923,Tabuk,65,PH,1585387535,52,17.42,121.44,86.76,4.56
924,Tuli,90,PH,1585387536,70,7.23,125.42,84.2,3.36
925,Dodoma,75,TZ,1585387536,73,-6.17,35.74,75.2,5.82
926,Eenhana,98,NA,1585387536,65,-17.47,16.33,77.0,8.05
927,Innisfail,37,AU,1585387536,90,-17.53,146.03,74.95,5.3
928,Kaduqli,32,SD,1585387537,6,11.02,29.72,106.7,3.71
929,Changji,34,CN,1585387537,15,44.02,87.32,57.2,6.71
930,Killarney,20,IE,1585387537,81,52.05,-9.52,46.4,6.93
931,Dauriya,3,RU,1585387538,34,49.93,116.87,42.87,10.42
932,Huambo,75,AO,1585387538,83,-12.78,15.74,69.8,2.62
933,Pārsābād,75,IR,1585387538,87,39.65,47.92,53.6,4.7
934,Terracina,89,IT,1585387538,79,41.29,13.22,62.01,8.99
935,Catabola,100,AO,1585387539,82,-12.15,17.28,68.0,4.7
936,Pesaro,24,IT,1585387539,62,43.9,12.89,55.4,12.75
937,Porangatu,97,BR,1585387539,86,-13.44,-49.15,69.73,3.31
938,Salitrillo,5,MX,1585387539,57,19.43,-99.85,48.2,3.36
939,Rivadavia,0,AR,1585387501,82,-33.19,-68.46,60.8,2.24
940,Oga,33,IT,1585387540,74,46.46,10.35,53.01,1.12
941,Neosho,1,US,1585387540,82,36.87,-94.37,72.0,11.41
942,Jurm,100,AF,1585387540,32,36.86,70.83,47.98,5.28
943,Yining,72,CN,1585387540,65,29.04,114.56,50.27,7.94
944,Guaratinga,20,BR,1585387541,88,-16.57,-39.57,71.6,8.05
945,Nicoya,3,CR,1585387541,85,10.15,-85.45,69.01,25.99
946,Rincon,1,US,1585387541,88,32.3,-81.24,69.01,6.93
947,Saiha,0,IN,1585387541,16,22.48,92.97,95.2,6.53
948,Benguela,20,AO,1585387541,74,-12.58,13.41,82.4,9.17
949,Coahuayana Viejo,0,MX,1585387542,40,18.73,-103.68,72.82,2.98
950,Puro,13,PH,1585387542,63,12.48,123.38,85.62,9.86
951,Mananara,100,MG,1585387542,73,-16.17,49.77,81.72,2.64
952,Mujiayingzi,0,CN,1585387542,32,42.12,118.78,46.02,12.39
953,Linguère,90,SN,1585387543,42,15.4,-15.12,72.1,13.73
954,Satipo,100,PE,1585387543,58,-11.25,-74.64,71.78,1.21
955,Sinnamary,98,GF,1585387543,85,5.38,-52.95,78.28,9.73
956,Casper,1,US,1585387501,92,42.87,-106.31,28.0,8.7
957,Mergen,44,CN,1585387543,62,49.18,125.22,37.56,11.18
958,Mirik,42,IN,1585387544,23,26.89,88.18,75.42,8.23
959,Yarim,26,YE,1585387544,18,14.3,44.38,67.91,5.08
960,Emporia,90,US,1585387544,100,38.4,-96.18,64.0,8.05
961,Bintulu,75,MY,1585387544,88,3.17,113.03,82.4,6.78
962,Oussouye,74,SN,1585387544,60,12.48,-16.55,75.2,11.41
963,Makat,0,KZ,1585387545,34,47.65,53.35,59.31,0.56
964,Sangmélima,0,CM,1585387545,47,2.93,11.98,86.5,1.43
